[{"coords": {"lat": "57.01027679", "lon": "61.45639038"}, "district": "\u0423\u0440\u0430\u043b\u044c\u0441\u043a\u0438\u0439", "name": "\u0410\u0441\u0431\u0435\u0441\u0442", "population": 62285, "subject": "\u0421\u0432\u0435\u0440\u0434\u043b\u043e\u0432\u0441\u043a\u0430\u044f \u043e\u0431\u043b\u0430\u0441\u0442\u044c", "name_en": "asbest"}, {"coords": {"lat": "56.83333", "lon": "60.58333"}, "district": "\u0423\u0440\u0430\u043b\u044c\u0441\u043a\u0438\u0439", "name": "\u0415\u043a\u0430\u0442\u0435\u0440\u0438\u043d\u0431\u0443\u0440\u0433", "population": 1495066, "subject": "\u0421\u0432\u0435\u0440\u0434\u043b\u043e\u0432\u0441\u043a\u0430\u044f \u043e\u0431\u043b\u0430\u0441\u0442\u044c", "name_en": "ekaterinburg"}, {"coords": {"lat": "56.4", "lon": "61.93333"}, "district": "\u0423\u0440\u0430\u043b\u044c\u0441\u043a\u0438\u0439", "name": "\u041a\u0430\u043c\u0435\u043d\u0441\u043a-\u0423\u0440\u0430\u043b\u044c\u0441\u043a\u0438\u0439", "population": 163990, "subject": "\u0421\u0432\u0435\u0440\u0434\u043b\u043e\u0432\u0441\u043a\u0430\u044f \u043e\u0431\u043b\u0430\u0441\u0442\u044c", "name_en": "kamensk-uralskiy"}, {"coords": {"lat": "57.91667", "lon": "59.96667"}, "district": "\u0423\u0440\u0430\u043b\u044c\u0441\u043a\u0438\u0439", "name": "\u041d\u0438\u0436\u043d\u0438\u0439 \u0422\u0430\u0433\u0438\u043b", "population": 344656, "subject": "\u0421\u0432\u0435\u0440\u0434\u043b\u043e\u0432\u0441\u043a\u0430\u044f \u043e\u0431\u043b\u0430\u0441\u0442\u044c", "name_en": "nizhniy_tagil"}, {"coords": {"lat": "57.25", "lon": "60.08333"}, "district": "\u0423\u0440\u0430\u043b\u044c\u0441\u043a\u0438\u0439", "name": "\u041d\u043e\u0432\u043e\u0443\u0440\u0430\u043b\u044c\u0441\u043a", "population": 79638, "subject": "\u0421\u0432\u0435\u0440\u0434\u043b\u043e\u0432\u0441\u043a\u0430\u044f \u043e\u0431\u043b\u0430\u0441\u0442\u044c", "name_en": "novouralsk"}, {"coords": {"lat": "56.91667", "lon": "59.95"}, "district": "\u0423\u0440\u0430\u043b\u044c\u0441\u043a\u0438\u0439", "name": "\u041f\u0435\u0440\u0432\u043e\u0443\u0440\u0430\u043b\u044c\u0441\u043a", "population": 119365, "subject": "\u0421\u0432\u0435\u0440\u0434\u043b\u043e\u0432\u0441\u043a\u0430\u044f \u043e\u0431\u043b\u0430\u0441\u0442\u044c", "name_en": "pervouralsk"}, {"coords": {"lat": "59.58333", "lon": "60.56667"}, "district": "\u0423\u0440\u0430\u043b\u044c\u0441\u043a\u0438\u0439", "name": "\u0421\u0435\u0440\u043e\u0432", "population": 95141, "subject": "\u0421\u0432\u0435\u0440\u0434\u043b\u043e\u0432\u0441\u043a\u0430\u044f \u043e\u0431\u043b\u0430\u0441\u0442\u044c", "name_en": "serov"}]